{
  "type": "FeatureCollection",
  "features": [
    {
      "type": "Feature",
      "geometry": {
        "type": "Point",
        "coordinates": [
          2.61111766113,
          48.40989053903
        ]
      },
      "properties": {
        "name": "Red 2 Glop!",
        "problemId": 2517
      }
    },
    {
      "type": "Feature",
      "geometry": {
        "type": "Point",
        "coordinates": [
          2.61310082441,
          48.41003843543
        ]
      },
      "properties": {
        "name": "Orange 32 L'Or Blanc",
        "problemId": 2775
      }
    },
    {
      "type": "Feature",
      "geometry": {
        "type": "Point",
        "coordinates": [
          2.61314067469,
          48.4100245873
        ]
      },
      "properties": {
        "name": "White 18 Interception",
        "problemId": 2771
      }
    },
    {
      "type": "Feature",
      "geometry": {
        "type": "Point",
        "coordinates": [
          2.61302882455,
          48.41011790509
        ]
      },
      "properties": {
        "name": "Orange 33 L'Écho du Ventre",
        "problemId": 2765
      }
    },
    {
      "type": "Feature",
      "geometry": {
        "type": "Point",
        "coordinates": [
          2.61173470062,
          48.41011708375
        ]
      },
      "properties": {
        "name": "Ten Eleven",
        "problemId": 2719
      }
    },
    {
      "type": "Feature",
      "geometry": {
        "type": "Point",
        "coordinates": [
          2.61169085806,
          48.41005109898
        ]
      },
      "properties": {
        "name": "Coup au Cœur",
        "problemId": 2715
      }
    },
    {
      "type": "Feature",
      "geometry": {
        "type": "Point",
        "coordinates": [
          2.61228649285,
          48.41053554645
        ]
      },
      "properties": {
        "name": "Éclipse",
        "problemId": 2643
      }
    },
    {
      "type": "Feature",
      "geometry": {
        "type": "Point",
        "coordinates": [
          2.61362569006,
          48.41040678642
        ]
      },
      "properties": {
        "name": "White 35 Pendule",
        "problemId": 2853
      }
    },
    {
      "type": "Feature",
      "geometry": {
        "type": "Point",
        "coordinates": [
          2.61376976346,
          48.41021640176
        ]
      },
      "properties": {
        "name": "White 28 Ligne Blanche",
        "problemId": 2817
      }
    },
    {
      "type": "Feature",
      "geometry": {
        "type": "Point",
        "coordinates": [
          2.61223307194,
          48.41037459198
        ]
      },
      "properties": {
        "name": "Red 47 La Monique",
        "problemId": 2615
      }
    },
    {
      "type": "Feature",
      "geometry": {
        "type": "Point",
        "coordinates": [
          2.61259468629,
          48.41009231858
        ]
      },
      "properties": {
        "name": "Red 44 Fausse Amie",
        "problemId": 2682
      }
    },
    {
      "type": "Feature",
      "geometry": {
        "type": "Point",
        "coordinates": [
          2.61172312503,
          48.41013494861
        ]
      },
      "properties": {
        "name": "Ten Eleven (direct)",
        "problemId": 2720
      }
    },
    {
      "type": "Feature",
      "geometry": {
        "type": "Point",
        "coordinates": [
          2.61179344675,
          48.41003899696
        ]
      },
      "properties": {
        "name": "Le Sablier",
        "problemId": 2723
      }
    },
    {
      "type": "Feature",
      "geometry": {
        "type": "Point",
        "coordinates": [
          2.6117380286,
          48.4100545567
        ]
      },
      "properties": {
        "name": "Sable Émouvant",
        "problemId": 2721
      }
    },
    {
      "type": "Feature",
      "geometry": {
        "type": "Point",
        "coordinates": [
          2.61176798045,
          48.41004427959
        ]
      },
      "properties": {
        "name": "Coulée de Sable",
        "problemId": 2722
      }
    },
    {
      "type": "Feature",
      "geometry": {
        "type": "Point",
        "coordinates": [
          2.61181746611,
          48.41003957325
        ]
      },
      "properties": {
        "name": "Dune de Sable",
        "problemId": 2724
      }
    },
    {
      "type": "Feature",
      "geometry": {
        "type": "Point",
        "coordinates": [
          2.6120351844,
          48.41025264932
        ]
      },
      "properties": {
        "name": "Orange 48 Le Tire Bras",
        "problemId": 2618
      }
    },
    {
      "type": "Feature",
      "geometry": {
        "type": "Point",
        "coordinates": [
          2.61269109516,
          48.41028870008
        ]
      },
      "properties": {
        "name": "Orange 38 La Belle",
        "problemId": 2727
      }
    },
    {
      "type": "Feature",
      "geometry": {
        "type": "Point",
        "coordinates": [
          2.61270787977,
          48.41031761031
        ]
      },
      "properties": {
        "name": "Red 41 L'Abomi-Affreuse",
        "problemId": 2732
      }
    },
    {
      "type": "Feature",
      "geometry": {
        "type": "Point",
        "coordinates": [
          2.61158938153,
          48.40970090589
        ]
      },
      "properties": {
        "name": "Red 13 La Patinette",
        "problemId": 2535
      }
    },
    {
      "type": "Feature",
      "geometry": {
        "type": "Point",
        "coordinates": [
          2.61175351096,
          48.40996023771
        ]
      },
      "properties": {
        "name": "Blocage Mental",
        "problemId": 2581
      }
    },
    {
      "type": "Feature",
      "geometry": {
        "type": "Point",
        "coordinates": [
          2.61258655707,
          48.4097847632
        ]
      },
      "properties": {
        "name": "Yellow 24 Vieux Pas Sage",
        "problemId": 2748
      }
    },
    {
      "type": "Feature",
      "geometry": {
        "type": "Point",
        "coordinates": [
          2.6141939874,
          48.41036707413
        ]
      },
      "properties": {
        "name": "Particule Élémentaire (statique)",
        "problemId": 2834
      }
    },
    {
      "type": "Feature",
      "geometry": {
        "type": "Point",
        "coordinates": [
          2.61155754835,
          48.4097815867
        ]
      },
      "properties": {
        "name": "Le Bleurb",
        "problemId": 2531
      }
    },
    {
      "type": "Feature",
      "geometry": {
        "type": "Point",
        "coordinates": [
          2.61348462061,
          48.41044131611
        ]
      },
      "properties": {
        "name": "Baffe à la PAF",
        "problemId": 2854
      }
    },
    {
      "type": "Feature",
      "geometry": {
        "type": "Point",
        "coordinates": [
          2.61156334299,
          48.41029436687
        ]
      },
      "properties": {
        "name": "Eugster Jovial",
        "problemId": 2594
      }
    },
    {
      "type": "Feature",
      "geometry": {
        "type": "Point",
        "coordinates": [
          2.61141276256,
          48.40978533869
        ]
      },
      "properties": {
        "name": "La Superbe",
        "problemId": 2528
      }
    },
    {
      "type": "Feature",
      "geometry": {
        "type": "Point",
        "coordinates": [
          2.61157048017,
          48.40985045927
        ]
      },
      "properties": {
        "name": "Yellow 13 Couloir Carrelé",
        "problemId": 2572
      }
    },
    {
      "type": "Feature",
      "geometry": {
        "type": "Point",
        "coordinates": [
          2.61224789449,
          48.41055033239
        ]
      },
      "properties": {
        "name": "Red 52 Futilités Mesquines",
        "problemId": 2635
      }
    },
    {
      "type": "Feature",
      "geometry": {
        "type": "Point",
        "coordinates": [
          2.6125301262,
          48.40984901936
        ]
      },
      "properties": {
        "name": "Le Rouge Vif",
        "problemId": 2744
      }
    },
    {
      "type": "Feature",
      "geometry": {
        "type": "Point",
        "coordinates": [
          2.61315371312,
          48.41062008443
        ]
      },
      "properties": {
        "name": "Maudit Manège",
        "problemId": 2761
      }
    },
    {
      "type": "Feature",
      "geometry": {
        "type": "Point",
        "coordinates": [
          2.61152605889,
          48.4098388374
        ]
      },
      "properties": {
        "name": "Sanguine (droite)",
        "problemId": 2571
      }
    },
    {
      "type": "Feature",
      "geometry": {
        "type": "Point",
        "coordinates": [
          2.61161253927,
          48.41030445183
        ]
      },
      "properties": {
        "name": "Le Roi des Fous",
        "problemId": 2599
      }
    },
    {
      "type": "Feature",
      "geometry": {
        "type": "Point",
        "coordinates": [
          2.61418961498,
          48.41036806928
        ]
      },
      "properties": {
        "name": "Particule Élémentaire",
        "problemId": 2833
      }
    },
    {
      "type": "Feature",
      "geometry": {
        "type": "Point",
        "coordinates": [
          2.61373871583,
          48.41032001347
        ]
      },
      "properties": {
        "name": "White 31 La Terrifiante",
        "problemId": 2829
      }
    },
    {
      "type": "Feature",
      "geometry": {
        "type": "Point",
        "coordinates": [
          2.61380558099,
          48.41065329206
        ]
      },
      "properties": {
        "name": "Viande Hachée",
        "problemId": 2846
      }
    },
    {
      "type": "Feature",
      "geometry": {
        "type": "Point",
        "coordinates": [
          2.61255993336,
          48.40974864894
        ]
      },
      "properties": {
        "name": "Pause Café (gauche-droite)",
        "problemId": 2750
      }
    },
    {
      "type": "Feature",
      "geometry": {
        "type": "Point",
        "coordinates": [
          2.61258395271,
          48.40972233169
        ]
      },
      "properties": {
        "name": "Red 22 Fil Rouge",
        "problemId": 2753
      }
    },
    {
      "type": "Feature",
      "geometry": {
        "type": "Point",
        "coordinates": [
          2.61385273944,
          48.41066311818
        ]
      },
      "properties": {
        "name": "Pain Trop n'en Faut (gauche)",
        "problemId": 2845
      }
    },
    {
      "type": "Feature",
      "geometry": {
        "type": "Point",
        "coordinates": [
          2.61330482278,
          48.40987084791
        ]
      },
      "properties": {
        "name": "Coup Atomique",
        "problemId": 2796
      }
    },
    {
      "type": "Feature",
      "geometry": {
        "type": "Point",
        "coordinates": [
          2.61264906542,
          48.40979158253
        ]
      },
      "properties": {
        "name": "Orange 24 Science Friction",
        "problemId": 2746
      }
    },
    {
      "type": "Feature",
      "geometry": {
        "type": "Point",
        "coordinates": [
          2.61255631598,
          48.40988148362
        ]
      },
      "properties": {
        "name": "Red 20 La Dalle des Seigneurs",
        "problemId": 2743
      }
    },
    {
      "type": "Feature",
      "geometry": {
        "type": "Point",
        "coordinates": [
          2.61069555423,
          48.41026070512
        ]
      },
      "properties": {
        "name": "Vieille Canaille",
        "problemId": 2447
      }
    },
    {
      "type": "Feature",
      "geometry": {
        "type": "Point",
        "coordinates": [
          2.61377385763,
          48.41016750943
        ]
      },
      "properties": {
        "name": "White 27 Le Mur en Coin",
        "problemId": 2819
      }
    },
    {
      "type": "Feature",
      "geometry": {
        "type": "Point",
        "coordinates": [
          2.61315671139,
          48.41061892344
        ]
      },
      "properties": {
        "name": "Substance Mort",
        "problemId": 2762
      }
    },
    {
      "type": "Feature",
      "geometry": {
        "type": "Point",
        "coordinates": [
          2.61163211193,
          48.41007933701
        ]
      },
      "properties": {
        "name": "La Gazeuse",
        "problemId": 2713
      }
    },
    {
      "type": "Feature",
      "geometry": {
        "type": "Point",
        "coordinates": [
          2.61274853904,
          48.41032356524
        ]
      },
      "properties": {
        "name": "White 39 La Figaro",
        "problemId": 2734
      }
    },
    {
      "type": "Feature",
      "geometry": {
        "type": "Point",
        "coordinates": [
          2.6115519121,
          48.41029273407
        ]
      },
      "properties": {
        "name": "Le Juste Prix",
        "problemId": 2595
      }
    },
    {
      "type": "Feature",
      "geometry": {
        "type": "Point",
        "coordinates": [
          2.61336257409,
          48.4103192257
        ]
      },
      "properties": {
        "name": "Basse Tension",
        "problemId": 2812
      }
    },
    {
      "type": "Feature",
      "geometry": {
        "type": "Point",
        "coordinates": [
          2.61168622783,
          48.41015377394
        ]
      },
      "properties": {
        "name": "White 9 Misèroidalle",
        "problemId": 2709
      }
    },
    {
      "type": "Feature",
      "geometry": {
        "type": "Point",
        "coordinates": [
          2.61257049608,
          48.40989560269
        ]
      },
      "properties": {
        "name": "Orange 23 La Fissure Bontemps",
        "problemId": 2742
      }
    },
    {
      "type": "Feature",
      "geometry": {
        "type": "Point",
        "coordinates": [
          2.61362771754,
          48.41021604227
        ]
      },
      "properties": {
        "name": "White 26 La Suspendue",
        "problemId": 2861
      }
    },
    {
      "type": "Feature",
      "geometry": {
        "type": "Point",
        "coordinates": [
          2.61380829755,
          48.4101469125
        ]
      },
      "properties": {
        "name": "Red 33 Papy Land",
        "problemId": 2859
      }
    },
    {
      "type": "Feature",
      "geometry": {
        "type": "Point",
        "coordinates": [
          2.61378556166,
          48.41018057915
        ]
      },
      "properties": {
        "name": "Red 34 Belle Directe",
        "problemId": 2860
      }
    },
    {
      "type": "Feature",
      "geometry": {
        "type": "Point",
        "coordinates": [
          2.61379193283,
          48.41015346332
        ]
      },
      "properties": {
        "name": "L'Instant Damné",
        "problemId": 2862
      }
    },
    {
      "type": "Feature",
      "geometry": {
        "type": "Point",
        "coordinates": [
          2.61338518506,
          48.41031499666
        ]
      },
      "properties": {
        "name": "White 36 Haute Pression",
        "problemId": 2814
      }
    },
    {
      "type": "Feature",
      "geometry": {
        "type": "Point",
        "coordinates": [
          2.61244417728,
          48.40990904951
        ]
      },
      "properties": {
        "name": "Uranus (assis)",
        "problemId": 2688
      }
    },
    {
      "type": "Feature",
      "geometry": {
        "type": "Point",
        "coordinates": [
          2.61227625484,
          48.41022434834
        ]
      },
      "properties": {
        "name": "Le Mur Cordier / Acier Damas",
        "problemId": 2668
      }
    },
    {
      "type": "Feature",
      "geometry": {
        "type": "Point",
        "coordinates": [
          2.61176928271,
          48.40993382453
        ]
      },
      "properties": {
        "name": "L'Arête du Star (debout)",
        "problemId": 2585
      }
    },
    {
      "type": "Feature",
      "geometry": {
        "type": "Point",
        "coordinates": [
          2.61155730451,
          48.40999836882
        ]
      },
      "properties": {
        "name": "Les Yeux pour Pleurer",
        "problemId": 2498
      }
    },
    {
      "type": "Feature",
      "geometry": {
        "type": "Point",
        "coordinates": [
          2.61156290876,
          48.41021167017
        ]
      },
      "properties": {
        "name": "Alaxis",
        "problemId": 2590
      }
    },
    {
      "type": "Feature",
      "geometry": {
        "type": "Point",
        "coordinates": [
          2.61156425001,
          48.40999337424
        ]
      },
      "properties": {
        "name": "Super Flux",
        "problemId": 2501
      }
    },
    {
      "type": "Feature",
      "geometry": {
        "type": "Point",
        "coordinates": [
          2.61202101286,
          48.41041432991
        ]
      },
      "properties": {
        "name": "Fil à Tordre",
        "problemId": 2628
      }
    },
    {
      "type": "Feature",
      "geometry": {
        "type": "Point",
        "coordinates": [
          2.61172757158,
          48.41037533478
        ]
      },
      "properties": {
        "name": "Bizarre, Bizarre",
        "problemId": 2607
      }
    },
    {
      "type": "Feature",
      "geometry": {
        "type": "Point",
        "coordinates": [
          2.61210291018,
          48.41038167389
        ]
      },
      "properties": {
        "name": "Hot Hot",
        "problemId": 2660
      }
    },
    {
      "type": "Feature",
      "geometry": {
        "type": "Point",
        "coordinates": [
          2.61253893623,
          48.41015963638
        ]
      },
      "properties": {
        "name": "Orange 40 Vertige",
        "problemId": 2674
      }
    },
    {
      "type": "Feature",
      "geometry": {
        "type": "Point",
        "coordinates": [
          2.61106560305,
          48.41005559464
        ]
      },
      "properties": {
        "name": "Les Droites",
        "problemId": 2463
      }
    },
    {
      "type": "Feature",
      "geometry": {
        "type": "Point",
        "coordinates": [
          2.6125608026,
          48.41011796594
        ]
      },
      "properties": {
        "name": "Orange 41 Petit Souci",
        "problemId": 2681
      }
    },
    {
      "type": "Feature",
      "geometry": {
        "type": "Point",
        "coordinates": [
          2.61147656475,
          48.41006829162
        ]
      },
      "properties": {
        "name": "La Réta Franklin (gauche)",
        "problemId": 2485
      }
    },
    {
      "type": "Feature",
      "geometry": {
        "type": "Point",
        "coordinates": [
          2.61143273046,
          48.40975306646
        ]
      },
      "properties": {
        "name": "La Jouissance du Masséter",
        "problemId": 2527
      }
    },
    {
      "type": "Feature",
      "geometry": {
        "type": "Point",
        "coordinates": [
          2.61093476705,
          48.40983444673
        ]
      },
      "properties": {
        "name": "Les Âmes Mortes",
        "problemId": 2516
      }
    },
    {
      "type": "Feature",
      "geometry": {
        "type": "Point",
        "coordinates": [
          2.61147164512,
          48.41007078886
        ]
      },
      "properties": {
        "name": "La Réta Franklin",
        "problemId": 2484
      }
    },
    {
      "type": "Feature",
      "geometry": {
        "type": "Point",
        "coordinates": [
          2.61173060376,
          48.40973471492
        ]
      },
      "properties": {
        "name": "Yellow 15 Danse du Vent",
        "problemId": 2551
      }
    },
    {
      "type": "Feature",
      "geometry": {
        "type": "Point",
        "coordinates": [
          2.61240908463,
          48.41042489509
        ]
      },
      "properties": {
        "name": "White 47 La Précision",
        "problemId": 2645
      }
    },
    {
      "type": "Feature",
      "geometry": {
        "type": "Point",
        "coordinates": [
          2.61238080105,
          48.409796481
        ]
      },
      "properties": {
        "name": "Orange 21 La Boîte à Lettres",
        "problemId": 2700
      }
    },
    {
      "type": "Feature",
      "geometry": {
        "type": "Point",
        "coordinates": [
          2.6117396201,
          48.40998088811
        ]
      },
      "properties": {
        "name": "Orange 16 Jolie Diagonale",
        "problemId": 2579
      }
    },
    {
      "type": "Feature",
      "geometry": {
        "type": "Point",
        "coordinates": [
          2.61149871134,
          48.40983345884
        ]
      },
      "properties": {
        "name": "Violence Conjugale",
        "problemId": 2568
      }
    },
    {
      "type": "Feature",
      "geometry": {
        "type": "Point",
        "coordinates": [
          2.61148293132,
          48.41004504807
        ]
      },
      "properties": {
        "name": "Red 6 La Trav 56",
        "problemId": 2486
      }
    },
    {
      "type": "Feature",
      "geometry": {
        "type": "Point",
        "coordinates": [
          2.61068195291,
          48.41023515652
        ]
      },
      "properties": {
        "name": "La Cabale",
        "problemId": 2448
      }
    },
    {
      "type": "Feature",
      "geometry": {
        "type": "Point",
        "coordinates": [
          2.61372984621,
          48.41029932438
        ]
      },
      "properties": {
        "name": "White 30 La Masse",
        "problemId": 2827
      }
    },
    {
      "type": "Feature",
      "geometry": {
        "type": "Point",
        "coordinates": [
          2.6123508492,
          48.40979484818
        ]
      },
      "properties": {
        "name": "La Poste (assis)",
        "problemId": 2698
      }
    },
    {
      "type": "Feature",
      "geometry": {
        "type": "Point",
        "coordinates": [
          2.61159676752,
          48.41029897714
        ]
      },
      "properties": {
        "name": "Agliato (assis)",
        "problemId": 2597
      }
    },
    {
      "type": "Feature",
      "geometry": {
        "type": "Point",
        "coordinates": [
          2.61368424961,
          48.41027229154
        ]
      },
      "properties": {
        "name": "Graine d'Étoiles (assis)",
        "problemId": 2826
      }
    },
    {
      "type": "Feature",
      "geometry": {
        "type": "Point",
        "coordinates": [
          2.61333808914,
          48.41032204515
        ]
      },
      "properties": {
        "name": "Red 38 Le Fil Suspendu",
        "problemId": 2811
      }
    },
    {
      "type": "Feature",
      "geometry": {
        "type": "Point",
        "coordinates": [
          2.61131653217,
          48.40999433481
        ]
      },
      "properties": {
        "name": "Mécano",
        "problemId": 2468
      }
    },
    {
      "type": "Feature",
      "geometry": {
        "type": "Point",
        "coordinates": [
          2.61136312393,
          48.41003563539
        ]
      },
      "properties": {
        "name": "White 3 La Peau Lisse",
        "problemId": 2472
      }
    },
    {
      "type": "Feature",
      "geometry": {
        "type": "Point",
        "coordinates": [
          2.61131884729,
          48.41002314917
        ]
      },
      "properties": {
        "name": "Mamma Mia",
        "problemId": 2474
      }
    },
    {
      "type": "Feature",
      "geometry": {
        "type": "Point",
        "coordinates": [
          2.61119840118,
          48.40978430956
        ]
      },
      "properties": {
        "name": "Boomerang",
        "problemId": 2525
      }
    },
    {
      "type": "Feature",
      "geometry": {
        "type": "Point",
        "coordinates": [
          2.61223718707,
          48.41046811625
        ]
      },
      "properties": {
        "name": "La Traversée de l'Alcôve",
        "problemId": 2653
      }
    },
    {
      "type": "Feature",
      "geometry": {
        "type": "Point",
        "coordinates": [
          2.61212345686,
          48.41038705253
        ]
      },
      "properties": {
        "name": "Pas Cool",
        "problemId": 4306
      }
    },
    {
      "type": "Feature",
      "geometry": {
        "type": "Point",
        "coordinates": [
          2.61388053463,
          48.41061083591
        ]
      },
      "properties": {
        "name": "Échine (assis)",
        "problemId": 2852
      }
    },
    {
      "type": "Feature",
      "geometry": {
        "type": "Point",
        "coordinates": [
          2.61157235278,
          48.41008116202
        ]
      },
      "properties": {
        "name": "Red 10 La Dalle Schwartz",
        "problemId": 2505
      }
    },
    {
      "type": "Feature",
      "geometry": {
        "type": "Point",
        "coordinates": [
          2.61210319957,
          48.41036803519
        ]
      },
      "properties": {
        "name": "Orange 45 Sortie des Artistes",
        "problemId": 2659
      }
    },
    {
      "type": "Feature",
      "geometry": {
        "type": "Point",
        "coordinates": [
          2.61132260936,
          48.40997992764
        ]
      },
      "properties": {
        "name": "Red 1 La Contorsion Nédélec",
        "problemId": 2467
      }
    },
    {
      "type": "Feature",
      "geometry": {
        "type": "Point",
        "coordinates": [
          2.61395220831,
          48.41000494847
        ]
      },
      "properties": {
        "name": "White 24 Coulée Noire",
        "problemId": 2807
      }
    },
    {
      "type": "Feature",
      "geometry": {
        "type": "Point",
        "coordinates": [
          2.61247282658,
          48.40991500468
        ]
      },
      "properties": {
        "name": "Yellow 25 Beau Pas Sage",
        "problemId": 2686
      }
    },
    {
      "type": "Feature",
      "geometry": {
        "type": "Point",
        "coordinates": [
          2.61336082517,
          48.41031549419
        ]
      },
      "properties": {
        "name": "Basse Tension (assis)",
        "problemId": 2813
      }
    },
    {
      "type": "Feature",
      "geometry": {
        "type": "Point",
        "coordinates": [
          2.61326780264,
          48.40969301325
        ]
      },
      "properties": {
        "name": "Les Portugaises (assis)",
        "problemId": 2802
      }
    },
    {
      "type": "Feature",
      "geometry": {
        "type": "Point",
        "coordinates": [
          2.6124623325,
          48.41045668656
        ]
      },
      "properties": {
        "name": "Envoyé Spécial",
        "problemId": 2649
      }
    },
    {
      "type": "Feature",
      "geometry": {
        "type": "Point",
        "coordinates": [
          2.60995310633,
          48.40974649265
        ]
      },
      "properties": {
        "name": "Sans Sucre",
        "problemId": 2881
      }
    },
    {
      "type": "Feature",
      "geometry": {
        "type": "Point",
        "coordinates": [
          2.6099198763,
          48.40978110394
        ]
      },
      "properties": {
        "name": "Tranche de Lard",
        "problemId": 2884
      }
    },
    {
      "type": "Feature",
      "geometry": {
        "type": "Point",
        "coordinates": [
          2.60988884862,
          48.40977202994
        ]
      },
      "properties": {
        "name": "Farine",
        "problemId": 2885
      }
    },
    {
      "type": "Feature",
      "geometry": {
        "type": "Point",
        "coordinates": [
          2.60996745493,
          48.40973103236
        ]
      },
      "properties": {
        "name": "Dans la Patisserie",
        "problemId": 2880
      }
    },
    {
      "type": "Feature",
      "geometry": {
        "type": "Point",
        "coordinates": [
          2.60993459846,
          48.40976816484
        ]
      },
      "properties": {
        "name": "Gateau de Noël",
        "problemId": 2883
      }
    },
    {
      "type": "Feature",
      "geometry": {
        "type": "Point",
        "coordinates": [
          2.60993667778,
          48.40982572739
        ]
      },
      "properties": {
        "name": "Aplatcadabras",
        "problemId": 2879
      }
    },
    {
      "type": "Feature",
      "geometry": {
        "type": "Point",
        "coordinates": [
          2.60994146092,
          48.40975891619
        ]
      },
      "properties": {
        "name": "Cerise",
        "problemId": 2882
      }
    },
    {
      "type": "Feature",
      "geometry": {
        "type": "Point",
        "coordinates": [
          2.61323636523,
          48.40988030116
        ]
      },
      "properties": {
        "name": "White 20 La Liberté",
        "problemId": 2767
      }
    },
    {
      "type": "Feature",
      "geometry": {
        "type": "Point",
        "coordinates": [
          2.61319189294,
          48.41001223177
        ]
      },
      "properties": {
        "name": "Red 29 Le French Cancan",
        "problemId": 2773
      }
    },
    {
      "type": "Feature",
      "geometry": {
        "type": "Point",
        "coordinates": [
          2.61161677427,
          48.40996715316
        ]
      },
      "properties": {
        "name": "Red 9 Évolution",
        "problemId": 2510
      }
    },
    {
      "type": "Feature",
      "geometry": {
        "type": "Point",
        "coordinates": [
          2.61214921255,
          48.410398194
        ]
      },
      "properties": {
        "name": "La Traversée de Pas Cool",
        "problemId": 2663
      }
    },
    {
      "type": "Feature",
      "geometry": {
        "type": "Point",
        "coordinates": [
          2.61385080295,
          48.4106644036
        ]
      },
      "properties": {
        "name": "Pain Trop n'en Faut",
        "problemId": 2844
      }
    },
    {
      "type": "Feature",
      "geometry": {
        "type": "Point",
        "coordinates": [
          2.61086475583,
          48.41043605014
        ]
      },
      "properties": {
        "name": "Rachel",
        "problemId": 2450
      }
    },
    {
      "type": "Feature",
      "geometry": {
        "type": "Point",
        "coordinates": [
          2.6123920871,
          48.40977784772
        ]
      },
      "properties": {
        "name": "Red 18 Le Baromètre",
        "problemId": 2701
      }
    },
    {
      "type": "Feature",
      "geometry": {
        "type": "Point",
        "coordinates": [
          2.61091682459,
          48.40982061599
        ]
      },
      "properties": {
        "name": "La Marche à Pied",
        "problemId": 2515
      }
    },
    {
      "type": "Feature",
      "geometry": {
        "type": "Point",
        "coordinates": [
          2.61248721988,
          48.4104343077
        ]
      },
      "properties": {
        "name": "Béatitude",
        "problemId": 2647
      }
    },
    {
      "type": "Feature",
      "geometry": {
        "type": "Point",
        "coordinates": [
          2.61405667528,
          48.41053637194
        ]
      },
      "properties": {
        "name": "Constellation",
        "problemId": 2837
      }
    },
    {
      "type": "Feature",
      "geometry": {
        "type": "Point",
        "coordinates": [
          2.61168879334,
          48.41046830834
        ]
      },
      "properties": {
        "name": "Grès Dansant",
        "problemId": 2612
      }
    },
    {
      "type": "Feature",
      "geometry": {
        "type": "Point",
        "coordinates": [
          2.61165738814,
          48.40963655341
        ]
      },
      "properties": {
        "name": "Mach 3",
        "problemId": 2546
      }
    },
    {
      "type": "Feature",
      "geometry": {
        "type": "Point",
        "coordinates": [
          2.61228117432,
          48.41052132624
        ]
      },
      "properties": {
        "name": "Red 50 Le Pas Faux-Pas",
        "problemId": 2642
      }
    },
    {
      "type": "Feature",
      "geometry": {
        "type": "Point",
        "coordinates": [
          2.61160645552,
          48.40963655341
        ]
      },
      "properties": {
        "name": "Entorse",
        "problemId": 2542
      }
    },
    {
      "type": "Feature",
      "geometry": {
        "type": "Point",
        "coordinates": [
          2.61223226744,
          48.41043565236
        ]
      },
      "properties": {
        "name": "Secret d'Alcôve",
        "problemId": 2652
      }
    },
    {
      "type": "Feature",
      "geometry": {
        "type": "Point",
        "coordinates": [
          2.61109627837,
          48.4099912426
        ]
      },
      "properties": {
        "name": "La Douceur",
        "problemId": 2464
      }
    },
    {
      "type": "Feature",
      "geometry": {
        "type": "Point",
        "coordinates": [
          2.61259002975,
          48.40991346772
        ]
      },
      "properties": {
        "name": "Hebegibies",
        "problemId": 2741
      }
    },
    {
      "type": "Feature",
      "geometry": {
        "type": "Point",
        "coordinates": [
          2.61141826097,
          48.40988215525
        ]
      },
      "properties": {
        "name": "Comète",
        "problemId": 2529
      }
    },
    {
      "type": "Feature",
      "geometry": {
        "type": "Point",
        "coordinates": [
          2.61329008205,
          48.40986711627
        ]
      },
      "properties": {
        "name": "White 21 Chute de Tension",
        "problemId": 2795
      }
    },
    {
      "type": "Feature",
      "geometry": {
        "type": "Point",
        "coordinates": [
          2.61246326093,
          48.41015204853
        ]
      },
      "properties": {
        "name": "L'Ami d'Al",
        "problemId": 2680
      }
    },
    {
      "type": "Feature",
      "geometry": {
        "type": "Point",
        "coordinates": [
          2.61206225106,
          48.41023981197
        ]
      },
      "properties": {
        "name": "La Prémolaire",
        "problemId": 2631
      }
    },
    {
      "type": "Feature",
      "geometry": {
        "type": "Point",
        "coordinates": [
          2.61236922546,
          48.40979311931
        ]
      },
      "properties": {
        "name": "White 13 Vieux Jeu",
        "problemId": 2699
      }
    },
    {
      "type": "Feature",
      "geometry": {
        "type": "Point",
        "coordinates": [
          2.61094261237,
          48.41004598986
        ]
      },
      "properties": {
        "name": "Yellow 2 Zone de Confort",
        "problemId": 2456
      }
    },
    {
      "type": "Feature",
      "geometry": {
        "type": "Point",
        "coordinates": [
          2.61265043575,
          48.41028620295
        ]
      },
      "properties": {
        "name": "Red 42 Rive Gauche",
        "problemId": 2725
      }
    },
    {
      "type": "Feature",
      "geometry": {
        "type": "Point",
        "coordinates": [
          2.61169168724,
          48.41032231673
        ]
      },
      "properties": {
        "name": "Orange 50 Sortie de Table",
        "problemId": 2605
      }
    },
    {
      "type": "Feature",
      "geometry": {
        "type": "Point",
        "coordinates": [
          2.61319988785,
          48.41008528698
        ]
      },
      "properties": {
        "name": "Orange 31 L'Or Noir",
        "problemId": 2769
      }
    },
    {
      "type": "Feature",
      "geometry": {
        "type": "Point",
        "coordinates": [
          2.61170513746,
          48.40973087299
        ]
      },
      "properties": {
        "name": "Red 12 L'Habitat Urbain",
        "problemId": 2552
      }
    },
    {
      "type": "Feature",
      "geometry": {
        "type": "Point",
        "coordinates": [
          2.61198483928,
          48.4103163617
        ]
      },
      "properties": {
        "name": "La Voie du Pin (assis)",
        "problemId": 2624
      }
    },
    {
      "type": "Feature",
      "geometry": {
        "type": "Point",
        "coordinates": [
          2.61176098969,
          48.40963290357
        ]
      },
      "properties": {
        "name": "Syphilisse",
        "problemId": 2550
      }
    },
    {
      "type": "Feature",
      "geometry": {
        "type": "Point",
        "coordinates": [
          2.61335382939,
          48.41025487787
        ]
      },
      "properties": {
        "name": "L'Hercule",
        "problemId": 2809
      }
    },
    {
      "type": "Feature",
      "geometry": {
        "type": "Point",
        "coordinates": [
          2.61204079906,
          48.40993674871
        ]
      },
      "properties": {
        "name": "L'Ouzo",
        "problemId": 2566
      }
    },
    {
      "type": "Feature",
      "geometry": {
        "type": "Point",
        "coordinates": [
          2.61254531917,
          48.40983826196
        ]
      },
      "properties": {
        "name": "C'est pour Jouer!",
        "problemId": 2745
      }
    },
    {
      "type": "Feature",
      "geometry": {
        "type": "Point",
        "coordinates": [
          2.61301029243,
          48.41029136381
        ]
      },
      "properties": {
        "name": "Yellow 33 Complainte des Lamentables",
        "problemId": 2754
      }
    },
    {
      "type": "Feature",
      "geometry": {
        "type": "Point",
        "coordinates": [
          2.61307823258,
          48.40972672173
        ]
      },
      "properties": {
        "name": "Red 23 Premier de la Bande",
        "problemId": 2798
      }
    },
    {
      "type": "Feature",
      "geometry": {
        "type": "Point",
        "coordinates": [
          2.61198324749,
          48.41031828274
        ]
      },
      "properties": {
        "name": "La Voie du Pin",
        "problemId": 2623
      }
    },
    {
      "type": "Feature",
      "geometry": {
        "type": "Point",
        "coordinates": [
          2.61236799127,
          48.41059662694
        ]
      },
      "properties": {
        "name": "Noires Pensées",
        "problemId": 2639
      }
    },
    {
      "type": "Feature",
      "geometry": {
        "type": "Point",
        "coordinates": [
          2.61181023122,
          48.40991884113
        ]
      },
      "properties": {
        "name": "Yellow 12 La Cristalline",
        "problemId": 2578
      }
    },
    {
      "type": "Feature",
      "geometry": {
        "type": "Point",
        "coordinates": [
          2.61147786715,
          48.41012640037
        ]
      },
      "properties": {
        "name": "Yellow 7 Plaque Chauffante",
        "problemId": 2575
      }
    },
    {
      "type": "Feature",
      "geometry": {
        "type": "Point",
        "coordinates": [
          2.61137904037,
          48.41003832472
        ]
      },
      "properties": {
        "name": "Orange 5 Faux Départ",
        "problemId": 2471
      }
    },
    {
      "type": "Feature",
      "geometry": {
        "type": "Point",
        "coordinates": [
          2.61154196685,
          48.41001258391
        ]
      },
      "properties": {
        "name": "White 4 Le Hareng Saur",
        "problemId": 2496
      }
    },
    {
      "type": "Feature",
      "geometry": {
        "type": "Point",
        "coordinates": [
          2.61399817981,
          48.41004027367
        ]
      },
      "properties": {
        "name": "White 25 Face Sud",
        "problemId": 2808
      }
    },
    {
      "type": "Feature",
      "geometry": {
        "type": "Point",
        "coordinates": [
          2.61206297439,
          48.41026449625
        ]
      },
      "properties": {
        "name": "La Molaire",
        "problemId": 2630
      }
    },
    {
      "type": "Feature",
      "geometry": {
        "type": "Point",
        "coordinates": [
          2.612331026,
          48.40979139044
        ]
      },
      "properties": {
        "name": "Orange 20 Carnet Mondain",
        "problemId": 2696
      }
    },
    {
      "type": "Feature",
      "geometry": {
        "type": "Point",
        "coordinates": [
          2.613054728,
          48.41000468577
        ]
      },
      "properties": {
        "name": "Orange 27 Le Toboggan",
        "problemId": 2777
      }
    },
    {
      "type": "Feature",
      "geometry": {
        "type": "Point",
        "coordinates": [
          2.6114976902,
          48.41002045983
        ]
      },
      "properties": {
        "name": "Orange 11 Fin des Travaux",
        "problemId": 2488
      }
    },
    {
      "type": "Feature",
      "geometry": {
        "type": "Point",
        "coordinates": [
          2.61224847327,
          48.41024605515
        ]
      },
      "properties": {
        "name": "Red 46 Bâbord",
        "problemId": 2664
      }
    },
    {
      "type": "Feature",
      "geometry": {
        "type": "Point",
        "coordinates": [
          2.61162849441,
          48.41008730907
        ]
      },
      "properties": {
        "name": "White 8 Ligne de Mire",
        "problemId": 2712
      }
    },
    {
      "type": "Feature",
      "geometry": {
        "type": "Point",
        "coordinates": [
          2.61096431661,
          48.41001852019
        ]
      },
      "properties": {
        "name": "The Dangler",
        "problemId": 2461
      }
    },
    {
      "type": "Feature",
      "geometry": {
        "type": "Point",
        "coordinates": [
          2.61280178662,
          48.41032442976
        ]
      },
      "properties": {
        "name": "Orange 36 La Vire",
        "problemId": 2738
      }
    },
    {
      "type": "Feature",
      "geometry": {
        "type": "Point",
        "coordinates": [
          2.61197957139,
          48.40979061504
        ]
      },
      "properties": {
        "name": "Le Mouton à 5 Pattes",
        "problemId": 2555
      }
    },
    {
      "type": "Feature",
      "geometry": {
        "type": "Point",
        "coordinates": [
          2.6131517928,
          48.40996695578
        ]
      },
      "properties": {
        "name": "Mon Ben",
        "problemId": 2785
      }
    },
    {
      "type": "Feature",
      "geometry": {
        "type": "Point",
        "coordinates": [
          2.61104939722,
          48.41007173066
        ]
      },
      "properties": {
        "name": "Le Couloir",
        "problemId": 2462
      }
    },
    {
      "type": "Feature",
      "geometry": {
        "type": "Point",
        "coordinates": [
          2.6125253349,
          48.41014907114
        ]
      },
      "properties": {
        "name": "Yellow 35 État d'Allégresse",
        "problemId": 2675
      }
    },
    {
      "type": "Feature",
      "geometry": {
        "type": "Point",
        "coordinates": [
          2.61305126714,
          48.41026996971
        ]
      },
      "properties": {
        "name": "Orange 35 L'Angle",
        "problemId": 2758
      }
    },
    {
      "type": "Feature",
      "geometry": {
        "type": "Point",
        "coordinates": [
          2.6122544059,
          48.41024154083
        ]
      },
      "properties": {
        "name": "Hénoch",
        "problemId": 2666
      }
    },
    {
      "type": "Feature",
      "geometry": {
        "type": "Point",
        "coordinates": [
          2.61165468433,
          48.41006464171
        ]
      },
      "properties": {
        "name": "Querelle de Famille",
        "problemId": 2714
      }
    },
    {
      "type": "Feature",
      "geometry": {
        "type": "Point",
        "coordinates": [
          2.61324573455,
          48.40997176532
        ]
      },
      "properties": {
        "name": "Orange 29 Champ Libre",
        "problemId": 2792
      }
    },
    {
      "type": "Feature",
      "geometry": {
        "type": "Point",
        "coordinates": [
          2.6116924043,
          48.40965384214
        ]
      },
      "properties": {
        "name": "Les Petits Poissons",
        "problemId": 2547
      }
    },
    {
      "type": "Feature",
      "geometry": {
        "type": "Point",
        "coordinates": [
          2.613618915,
          48.4103517314
        ]
      },
      "properties": {
        "name": "Brutal",
        "problemId": 2831
      }
    },
    {
      "type": "Feature",
      "geometry": {
        "type": "Point",
        "coordinates": [
          2.61224941792,
          48.40981031204
        ]
      },
      "properties": {
        "name": "Orange 18 La Cascade",
        "problemId": 2690
      }
    },
    {
      "type": "Feature",
      "geometry": {
        "type": "Point",
        "coordinates": [
          2.61148379949,
          48.41003851682
        ]
      },
      "properties": {
        "name": "Yellow 6 Les Brûleurs",
        "problemId": 2487
      }
    },
    {
      "type": "Feature",
      "geometry": {
        "type": "Point",
        "coordinates": [
          2.61213714785,
          48.40982439944
        ]
      },
      "properties": {
        "name": "Yellow 20 La Raie du Bus",
        "problemId": 2577
      }
    },
    {
      "type": "Feature",
      "geometry": {
        "type": "Point",
        "coordinates": [
          2.61211332822,
          48.41036015933
        ]
      },
      "properties": {
        "name": "Red 48 Pôle Emploi",
        "problemId": 2658
      }
    },
    {
      "type": "Feature",
      "geometry": {
        "type": "Point",
        "coordinates": [
          2.61074431657,
          48.4102941295
        ]
      },
      "properties": {
        "name": "Orange 1 Destin Animé",
        "problemId": 2441
      }
    },
    {
      "type": "Feature",
      "geometry": {
        "type": "Point",
        "coordinates": [
          2.61229340517,
          48.40978918143
        ]
      },
      "properties": {
        "name": "Yellow 21 La Fausse Dalle",
        "problemId": 2693
      }
    },
    {
      "type": "Feature",
      "geometry": {
        "type": "Point",
        "coordinates": [
          2.61226822826,
          48.40979379174
        ]
      },
      "properties": {
        "name": "White 12 L'Inversée Oblique",
        "problemId": 2692
      }
    },
    {
      "type": "Feature",
      "geometry": {
        "type": "Point",
        "coordinates": [
          2.61169052967,
          48.41037302965
        ]
      },
      "properties": {
        "name": "Orange 51 Ambiance Montagne",
        "problemId": 2606
      }
    },
    {
      "type": "Feature",
      "geometry": {
        "type": "Point",
        "coordinates": [
          2.6137148555,
          48.41028456416
        ]
      },
      "properties": {
        "name": "White 29 La Traversée de l'Équerre",
        "problemId": 2824
      }
    },
    {
      "type": "Feature",
      "geometry": {
        "type": "Point",
        "coordinates": [
          2.61173654266,
          48.41052228671
        ]
      },
      "properties": {
        "name": "Mister Dynamite",
        "problemId": 2613
      }
    },
    {
      "type": "Feature",
      "geometry": {
        "type": "Point",
        "coordinates": [
          2.61323186815,
          48.40996994101
        ]
      },
      "properties": {
        "name": "Yellow 29 La Béatrice",
        "problemId": 2793
      }
    },
    {
      "type": "Feature",
      "geometry": {
        "type": "Point",
        "coordinates": [
          2.61240424148,
          48.40977016387
        ]
      },
      "properties": {
        "name": "Rouge Pluriel",
        "problemId": 2702
      }
    },
    {
      "type": "Feature",
      "geometry": {
        "type": "Point",
        "coordinates": [
          2.61246586544,
          48.41014542124
        ]
      },
      "properties": {
        "name": "L'Amie Six",
        "problemId": 2679
      }
    },
    {
      "type": "Feature",
      "geometry": {
        "type": "Point",
        "coordinates": [
          2.61115123035,
          48.40983367853
        ]
      },
      "properties": {
        "name": "Orange 6 Haute Surveillance",
        "problemId": 2522
      }
    },
    {
      "type": "Feature",
      "geometry": {
        "type": "Point",
        "coordinates": [
          2.61247369504,
          48.40977996079
        ]
      },
      "properties": {
        "name": "Yellow 23 Piquet de Grève",
        "problemId": 2704
      }
    },
    {
      "type": "Feature",
      "geometry": {
        "type": "Point",
        "coordinates": [
          2.61343558839,
          48.41045255216
        ]
      },
      "properties": {
        "name": "White 34 Horloge",
        "problemId": 2855
      }
    },
    {
      "type": "Feature",
      "geometry": {
        "type": "Point",
        "coordinates": [
          2.61243628727,
          48.410453325
        ]
      },
      "properties": {
        "name": "White 46 Mauvais Penchant",
        "problemId": 2646
      }
    },
    {
      "type": "Feature",
      "geometry": {
        "type": "Point",
        "coordinates": [
          2.61308824408,
          48.41039568029
        ]
      },
      "properties": {
        "name": "White 37 Crack System",
        "problemId": 2760
      }
    },
    {
      "type": "Feature",
      "geometry": {
        "type": "Point",
        "coordinates": [
          2.6115986874,
          48.40997176347
        ]
      },
      "properties": {
        "name": "Orange 13 Court Passage",
        "problemId": 2509
      }
    },
    {
      "type": "Feature",
      "geometry": {
        "type": "Point",
        "coordinates": [
          2.61311620902,
          48.40973634086
        ]
      },
      "properties": {
        "name": "White 22 Astuce Grattons",
        "problemId": 2799
      }
    },
    {
      "type": "Feature",
      "geometry": {
        "type": "Point",
        "coordinates": [
          2.61247253748,
          48.4098070464
        ]
      },
      "properties": {
        "name": "Orange 22 Mise en Scène",
        "problemId": 2706
      }
    },
    {
      "type": "Feature",
      "geometry": {
        "type": "Point",
        "coordinates": [
          2.61199288332,
          48.40978811779
        ]
      },
      "properties": {
        "name": "Cinq et Demie",
        "problemId": 2557
      }
    },
    {
      "type": "Feature",
      "geometry": {
        "type": "Point",
        "coordinates": [
          2.61194238878,
          48.40995310366
        ]
      },
      "properties": {
        "name": "Red 16 La Folie Douce",
        "problemId": 2561
      }
    },
    {
      "type": "Feature",
      "geometry": {
        "type": "Point",
        "coordinates": [
          2.61249147644,
          48.41013889001
        ]
      },
      "properties": {
        "name": "Longue Journée",
        "problemId": 2677
      }
    },
    {
      "type": "Feature",
      "geometry": {
        "type": "Point",
        "coordinates": [
          2.61161832051,
          48.40967650959
        ]
      },
      "properties": {
        "name": "Red 15 La Soupière",
        "problemId": 2544
      }
    },
    {
      "type": "Feature",
      "geometry": {
        "type": "Point",
        "coordinates": [
          2.6115686967,
          48.41029331035
        ]
      },
      "properties": {
        "name": "Cuisine Équipée",
        "problemId": 2593
      }
    },
    {
      "type": "Feature",
      "geometry": {
        "type": "Point",
        "coordinates": [
          2.61427531184,
          48.41040836958
        ]
      },
      "properties": {
        "name": "L'Hipposarse",
        "problemId": 2835
      }
    },
    {
      "type": "Feature",
      "geometry": {
        "type": "Point",
        "coordinates": [
          2.61165830171,
          48.4101252478
        ]
      },
      "properties": {
        "name": "Fin de Dalle",
        "problemId": 2711
      }
    },
    {
      "type": "Feature",
      "geometry": {
        "type": "Point",
        "coordinates": [
          2.61095476674,
          48.41002562773
        ]
      },
      "properties": {
        "name": "Week-End (assis)",
        "problemId": 2458
      }
    },
    {
      "type": "Feature",
      "geometry": {
        "type": "Point",
        "coordinates": [
          2.61175622116,
          48.41043949424
        ]
      },
      "properties": {
        "name": "La Craquante",
        "problemId": 2610
      }
    },
    {
      "type": "Feature",
      "geometry": {
        "type": "Point",
        "coordinates": [
          2.61202202587,
          48.41041788356
        ]
      },
      "properties": {
        "name": "Fil à Tordre (assis)",
        "problemId": 2629
      }
    },
    {
      "type": "Feature",
      "geometry": {
        "type": "Point",
        "coordinates": [
          2.61141897617,
          48.41010382927
        ]
      },
      "properties": {
        "name": "Tango (assis)",
        "problemId": 2480
      }
    },
    {
      "type": "Feature",
      "geometry": {
        "type": "Point",
        "coordinates": [
          2.61275505031,
          48.41032356524
        ]
      },
      "properties": {
        "name": "La Figaro (assis)",
        "problemId": 2735
      }
    },
    {
      "type": "Feature",
      "geometry": {
        "type": "Point",
        "coordinates": [
          2.61244157277,
          48.40990405501
        ]
      },
      "properties": {
        "name": "Uranus / Terre Promise",
        "problemId": 2687
      }
    },
    {
      "type": "Feature",
      "geometry": {
        "type": "Point",
        "coordinates": [
          2.61157090583,
          48.40999106919
        ]
      },
      "properties": {
        "name": "White 5 Le Flux",
        "problemId": 2499
      }
    },
    {
      "type": "Feature",
      "geometry": {
        "type": "Point",
        "coordinates": [
          2.61224456665,
          48.41024999299
        ]
      },
      "properties": {
        "name": "Le Bal des Lutins",
        "problemId": 2665
      }
    },
    {
      "type": "Feature",
      "geometry": {
        "type": "Point",
        "coordinates": [
          2.61141723983,
          48.41010767117
        ]
      },
      "properties": {
        "name": "Tango",
        "problemId": 2479
      }
    },
    {
      "type": "Feature",
      "geometry": {
        "type": "Point",
        "coordinates": [
          2.61246262174,
          48.41035382021
        ]
      },
      "properties": {
        "name": "White 48 L'Infinie",
        "problemId": 2650
      }
    },
    {
      "type": "Feature",
      "geometry": {
        "type": "Point",
        "coordinates": [
          2.61224731571,
          48.41056166592
        ]
      },
      "properties": {
        "name": "White 45 Argent Facile",
        "problemId": 2636
      }
    },
    {
      "type": "Feature",
      "geometry": {
        "type": "Point",
        "coordinates": [
          2.61381707387,
          48.4106368735
        ]
      },
      "properties": {
        "name": "L'Obèse",
        "problemId": 2848
      }
    },
    {
      "type": "Feature",
      "geometry": {
        "type": "Point",
        "coordinates": [
          2.61153502149,
          48.41009364822
        ]
      },
      "properties": {
        "name": "Red 7 L'Équilibriste",
        "problemId": 2492
      }
    },
    {
      "type": "Feature",
      "geometry": {
        "type": "Point",
        "coordinates": [
          2.61193442659,
          48.4097185788
        ]
      },
      "properties": {
        "name": "Le Mouton",
        "problemId": 2558
      }
    },
    {
      "type": "Feature",
      "geometry": {
        "type": "Point",
        "coordinates": [
          2.61069786935,
          48.41026569959
        ]
      },
      "properties": {
        "name": "Canaille",
        "problemId": 2446
      }
    },
    {
      "type": "Feature",
      "geometry": {
        "type": "Point",
        "coordinates": [
          2.61388190878,
          48.41060917747
        ]
      },
      "properties": {
        "name": "Échine",
        "problemId": 2851
      }
    },
    {
      "type": "Feature",
      "geometry": {
        "type": "Point",
        "coordinates": [
          2.61154355864,
          48.40994621471
        ]
      },
      "properties": {
        "name": "L'Invisible",
        "problemId": 2574
      }
    },
    {
      "type": "Feature",
      "geometry": {
        "type": "Point",
        "coordinates": [
          2.61273045217,
          48.41030301113
        ]
      },
      "properties": {
        "name": "La Proue de la Passion",
        "problemId": 2728
      }
    },
    {
      "type": "Feature",
      "geometry": {
        "type": "Point",
        "coordinates": [
          2.6122659815,
          48.41023328074
        ]
      },
      "properties": {
        "name": "White 43 Mathusalem",
        "problemId": 2667
      }
    },
    {
      "type": "Feature",
      "geometry": {
        "type": "Point",
        "coordinates": [
          2.61139206292,
          48.41001988354
        ]
      },
      "properties": {
        "name": "Orange 8 La Cannelurée",
        "problemId": 2475
      }
    },
    {
      "type": "Feature",
      "geometry": {
        "type": "Point",
        "coordinates": [
          2.61310757023,
          48.40986462858
        ]
      },
      "properties": {
        "name": "Red 24 Prise d'Ongle",
        "problemId": 2790
      }
    },
    {
      "type": "Feature",
      "geometry": {
        "type": "Point",
        "coordinates": [
          2.61222792659,
          48.41044737009
        ]
      },
      "properties": {
        "name": "White 44 La Coquille",
        "problemId": 2651
      }
    },
    {
      "type": "Feature",
      "geometry": {
        "type": "Point",
        "coordinates": [
          2.6131695318,
          48.40996911178
        ]
      },
      "properties": {
        "name": "Yellow 28 L'Émotion",
        "problemId": 2786
      }
    },
    {
      "type": "Feature",
      "geometry": {
        "type": "Point",
        "coordinates": [
          2.61268334175,
          48.41016155733
        ]
      },
      "properties": {
        "name": "Red 43 Monde Cruel",
        "problemId": 2740
      }
    },
    {
      "type": "Feature",
      "geometry": {
        "type": "Point",
        "coordinates": [
          2.6116800058,
          48.40993632187
        ]
      },
      "properties": {
        "name": "La Bouse à Dom",
        "problemId": 2513
      }
    },
    {
      "type": "Feature",
      "geometry": {
        "type": "Point",
        "coordinates": [
          2.6140383118,
          48.41060785071
        ]
      },
      "properties": {
        "name": "Plat-Eau",
        "problemId": 2841
      }
    },
    {
      "type": "Feature",
      "geometry": {
        "type": "Point",
        "coordinates": [
          2.61211998419,
          48.41038974185
        ]
      },
      "properties": {
        "name": "Paye ton Café",
        "problemId": 2661
      }
    },
    {
      "type": "Feature",
      "geometry": {
        "type": "Point",
        "coordinates": [
          2.61155643648,
          48.41014762689
        ]
      },
      "properties": {
        "name": "La Divine",
        "problemId": 2491
      }
    },
    {
      "type": "Feature",
      "geometry": {
        "type": "Point",
        "coordinates": [
          2.61163775488,
          48.41001027876
        ]
      },
      "properties": {
        "name": "Évolution Permanente",
        "problemId": 2511
      }
    },
    {
      "type": "Feature",
      "geometry": {
        "type": "Point",
        "coordinates": [
          2.61167721774,
          48.41052363136
        ]
      },
      "properties": {
        "name": "Bonne Surprise",
        "problemId": 2614
      }
    },
    {
      "type": "Feature",
      "geometry": {
        "type": "Point",
        "coordinates": [
          2.61311219224,
          48.40986968698
        ]
      },
      "properties": {
        "name": "Orange 25 La Simplification",
        "problemId": 2789
      }
    },
    {
      "type": "Feature",
      "geometry": {
        "type": "Point",
        "coordinates": [
          2.6124726661,
          48.4101392742
        ]
      },
      "properties": {
        "name": "Red 45 Le Cendrier",
        "problemId": 2678
      }
    },
    {
      "type": "Feature",
      "geometry": {
        "type": "Point",
        "coordinates": [
          2.61173585804,
          48.41010325299
        ]
      },
      "properties": {
        "name": "La Dalle du Vertige",
        "problemId": 2717
      }
    },
    {
      "type": "Feature",
      "geometry": {
        "type": "Point",
        "coordinates": [
          2.61266568897,
          48.41016712809
        ]
      },
      "properties": {
        "name": "Orange 39 La Martine",
        "problemId": 2739
      }
    },
    {
      "type": "Feature",
      "geometry": {
        "type": "Point",
        "coordinates": [
          2.61116338501,
          48.40984328316
        ]
      },
      "properties": {
        "name": "Red 3 Marbre",
        "problemId": 2523
      }
    },
    {
      "type": "Feature",
      "geometry": {
        "type": "Point",
        "coordinates": [
          2.61229086903,
          48.41021570406
        ]
      },
      "properties": {
        "name": "Orange 42 Tribord",
        "problemId": 2670
      }
    },
    {
      "type": "Feature",
      "geometry": {
        "type": "Point",
        "coordinates": [
          2.61326424241,
          48.40969197666
        ]
      },
      "properties": {
        "name": "Les Portugaises (gauche)",
        "problemId": 2803
      }
    },
    {
      "type": "Feature",
      "geometry": {
        "type": "Point",
        "coordinates": [
          2.61175958815,
          48.40994803963
        ]
      },
      "properties": {
        "name": "Red 11 La Fissure Fédoroff",
        "problemId": 2583
      }
    },
    {
      "type": "Feature",
      "geometry": {
        "type": "Point",
        "coordinates": [
          2.61118166705,
          48.4103733933
        ]
      },
      "properties": {
        "name": "Nouvelles de Petersbourg",
        "problemId": 2454
      }
    },
    {
      "type": "Feature",
      "geometry": {
        "type": "Point",
        "coordinates": [
          2.61185947432,
          48.40979925958
        ]
      },
      "properties": {
        "name": "Yellow 16 La Tempête",
        "problemId": 2559
      }
    },
    {
      "type": "Feature",
      "geometry": {
        "type": "Point",
        "coordinates": [
          2.61320563442,
          48.41001670961
        ]
      },
      "properties": {
        "name": "Orange 30 Le Crabe",
        "problemId": 2774
      }
    },
    {
      "type": "Feature",
      "geometry": {
        "type": "Point",
        "coordinates": [
          2.61197934073,
          48.41025873341
        ]
      },
      "properties": {
        "name": "Meaux",
        "problemId": 2621
      }
    },
    {
      "type": "Feature",
      "geometry": {
        "type": "Point",
        "coordinates": [
          2.61203007389,
          48.40992678652
        ]
      },
      "properties": {
        "name": "Orange 17 Le Bouchon",
        "problemId": 2565
      }
    },
    {
      "type": "Feature",
      "geometry": {
        "type": "Point",
        "coordinates": [
          2.61266779928,
          48.4102879317
        ]
      },
      "properties": {
        "name": "White 42 La Maîtresse",
        "problemId": 2726
      }
    },
    {
      "type": "Feature",
      "geometry": {
        "type": "Point",
        "coordinates": [
          2.61240745017,
          48.40992392964
        ]
      },
      "properties": {
        "name": "Clin d'Œil",
        "problemId": 2685
      }
    },
    {
      "type": "Feature",
      "geometry": {
        "type": "Point",
        "coordinates": [
          2.61177275538,
          48.40993372848
        ]
      },
      "properties": {
        "name": "L'Arête du Star (départ sauté)",
        "problemId": 2586
      }
    },
    {
      "type": "Feature",
      "geometry": {
        "type": "Point",
        "coordinates": [
          2.61427930949,
          48.41040671104
        ]
      },
      "properties": {
        "name": "L'Hipposarse (assis)",
        "problemId": 2836
      }
    },
    {
      "type": "Feature",
      "geometry": {
        "type": "Point",
        "coordinates": [
          2.61154254563,
          48.41009095888
        ]
      },
      "properties": {
        "name": "Erreur Fatale (raccourci)",
        "problemId": 2493
      }
    },
    {
      "type": "Feature",
      "geometry": {
        "type": "Point",
        "coordinates": [
          2.6116857936,
          48.40995284212
        ]
      },
      "properties": {
        "name": "Pigeon Voyageur",
        "problemId": 2514
      }
    },
    {
      "type": "Feature",
      "geometry": {
        "type": "Point",
        "coordinates": [
          2.61228117447,
          48.41022646139
        ]
      },
      "properties": {
        "name": "Le Mur Cordier (assis)",
        "problemId": 2669
      }
    },
    {
      "type": "Feature",
      "geometry": {
        "type": "Point",
        "coordinates": [
          2.61275418215,
          48.41034652053
        ]
      },
      "properties": {
        "name": "La Molière (assis)",
        "problemId": 2737
      }
    },
    {
      "type": "Feature",
      "geometry": {
        "type": "Point",
        "coordinates": [
          2.61250883968,
          48.41014215572
        ]
      },
      "properties": {
        "name": "La Facilité",
        "problemId": 2676
      }
    },
    {
      "type": "Feature",
      "geometry": {
        "type": "Point",
        "coordinates": [
          2.61303573964,
          48.40987665253
        ]
      },
      "properties": {
        "name": "Yellow 26 Goutte d'Eau",
        "problemId": 2788
      }
    },
    {
      "type": "Feature",
      "geometry": {
        "type": "Point",
        "coordinates": [
          2.61142158068,
          48.41007443868
        ]
      },
      "properties": {
        "name": "Yellow 4 Scène de Ménage",
        "problemId": 2477
      }
    },
    {
      "type": "Feature",
      "geometry": {
        "type": "Point",
        "coordinates": [
          2.61133765763,
          48.41003025671
        ]
      },
      "properties": {
        "name": "Red 4 Nuit Blanche",
        "problemId": 2473
      }
    },
    {
      "type": "Feature",
      "geometry": {
        "type": "Point",
        "coordinates": [
          2.61325635296,
          48.40997334085
        ]
      },
      "properties": {
        "name": "Red 30 Sortie du Four",
        "problemId": 2791
      }
    },
    {
      "type": "Feature",
      "geometry": {
        "type": "Point",
        "coordinates": [
          2.61157201813,
          48.40963559292
        ]
      },
      "properties": {
        "name": "Crash Test",
        "problemId": 2540
      }
    },
    {
      "type": "Feature",
      "geometry": {
        "type": "Point",
        "coordinates": [
          2.61321812655,
          48.40994033754
        ]
      },
      "properties": {
        "name": "Orange 28 Le Râteau",
        "problemId": 2794
      }
    },
    {
      "type": "Feature",
      "geometry": {
        "type": "Point",
        "coordinates": [
          2.61177641973,
          48.40980828792
        ]
      },
      "properties": {
        "name": "Coup de Pouce",
        "problemId": 2560
      }
    },
    {
      "type": "Feature",
      "geometry": {
        "type": "Point",
        "coordinates": [
          2.61260694284,
          48.41009048209
        ]
      },
      "properties": {
        "name": "Graine de Roche",
        "problemId": 2683
      }
    },
    {
      "type": "Feature",
      "geometry": {
        "type": "Point",
        "coordinates": [
          2.61374658583,
          48.41020396336
        ]
      },
      "properties": {
        "name": "Le Faux French Cancan",
        "problemId": 2818
      }
    },
    {
      "type": "Feature",
      "geometry": {
        "type": "Point",
        "coordinates": [
          2.61154572892,
          48.40995649194
        ]
      },
      "properties": {
        "name": "Red 8 Double Jeu",
        "problemId": 2573
      }
    },
    {
      "type": "Feature",
      "geometry": {
        "type": "Point",
        "coordinates": [
          2.61095129406,
          48.41002120953
        ]
      },
      "properties": {
        "name": "Week-End",
        "problemId": 2457
      }
    },
    {
      "type": "Feature",
      "geometry": {
        "type": "Point",
        "coordinates": [
          2.611499243,
          48.4102331848
        ]
      },
      "properties": {
        "name": "L'Éternel Mari",
        "problemId": 2587
      }
    },
    {
      "type": "Feature",
      "geometry": {
        "type": "Point",
        "coordinates": [
          2.61313780148,
          48.4099864427
        ]
      },
      "properties": {
        "name": "Jo's Special",
        "problemId": 2779
      }
    },
    {
      "type": "Feature",
      "geometry": {
        "type": "Point",
        "coordinates": [
          2.61150797181,
          48.40983489957
        ]
      },
      "properties": {
        "name": "Rencard",
        "problemId": 2569
      }
    },
    {
      "type": "Feature",
      "geometry": {
        "type": "Point",
        "coordinates": [
          2.61380779787,
          48.41026947226
        ]
      },
      "properties": {
        "name": "Red 35 Hors d'Œuvre",
        "problemId": 2821
      }
    },
    {
      "type": "Feature",
      "geometry": {
        "type": "Point",
        "coordinates": [
          2.6116144203,
          48.4103021467
        ]
      },
      "properties": {
        "name": "Le Fou du Roi",
        "problemId": 2598
      }
    },
    {
      "type": "Feature",
      "geometry": {
        "type": "Point",
        "coordinates": [
          2.61331706519,
          48.40987383314
        ]
      },
      "properties": {
        "name": "Haute Tension",
        "problemId": 2797
      }
    },
    {
      "type": "Feature",
      "geometry": {
        "type": "Point",
        "coordinates": [
          2.6115063719,
          48.41005061884
        ]
      },
      "properties": {
        "name": "Perte de Contrôle",
        "problemId": 2494
      }
    },
    {
      "type": "Feature",
      "geometry": {
        "type": "Point",
        "coordinates": [
          2.61201213172,
          48.40992486556
        ]
      },
      "properties": {
        "name": "Yellow 19 Fissure d'Angle",
        "problemId": 2563
      }
    },
    {
      "type": "Feature",
      "geometry": {
        "type": "Point",
        "coordinates": [
          2.6123416568,
          48.41059912415
        ]
      },
      "properties": {
        "name": "Atomic Power",
        "problemId": 2640
      }
    },
    {
      "type": "Feature",
      "geometry": {
        "type": "Point",
        "coordinates": [
          2.61157375448,
          48.40967881475
        ]
      },
      "properties": {
        "name": "Yellow 14 La Fissure des Poètes",
        "problemId": 2537
      }
    },
    {
      "type": "Feature",
      "geometry": {
        "type": "Point",
        "coordinates": [
          2.61148245839,
          48.41023721879
        ]
      },
      "properties": {
        "name": "White 6 Jeu Sérieux",
        "problemId": 2588
      }
    },
    {
      "type": "Feature",
      "geometry": {
        "type": "Point",
        "coordinates": [
          2.61197008025,
          48.41044007052
        ]
      },
      "properties": {
        "name": "Attention Danger",
        "problemId": 2627
      }
    },
    {
      "type": "Feature",
      "geometry": {
        "type": "Point",
        "coordinates": [
          2.61303377786,
          48.41025006836
        ]
      },
      "properties": {
        "name": "White 38 Chute Fatale",
        "problemId": 2757
      }
    },
    {
      "type": "Feature",
      "geometry": {
        "type": "Point",
        "coordinates": [
          2.61162758098,
          48.40966479167
        ]
      },
      "properties": {
        "name": "L'Impasse du Hasard",
        "problemId": 2545
      }
    },
    {
      "type": "Feature",
      "geometry": {
        "type": "Point",
        "coordinates": [
          2.61163645277,
          48.41009950703
        ]
      },
      "properties": {
        "name": "Orange 15 La Dragée Haute",
        "problemId": 2710
      }
    },
    {
      "type": "Feature",
      "geometry": {
        "type": "Point",
        "coordinates": [
          2.61198955932,
          48.40992352089
        ]
      },
      "properties": {
        "name": "Cimetière",
        "problemId": 2564
      }
    },
    {
      "type": "Feature",
      "geometry": {
        "type": "Point",
        "coordinates": [
          2.61072999162,
          48.41030008453
        ]
      },
      "properties": {
        "name": "Yellow 1 Esprit d'Ouverture",
        "problemId": 2442
      }
    },
    {
      "type": "Feature",
      "geometry": {
        "type": "Point",
        "coordinates": [
          2.61161253271,
          48.4096498081
        ]
      },
      "properties": {
        "name": "Rétrofriction",
        "problemId": 2543
      }
    },
    {
      "type": "Feature",
      "geometry": {
        "type": "Point",
        "coordinates": [
          2.61155812742,
          48.40963905067
        ]
      },
      "properties": {
        "name": "Impulsion du Moment",
        "problemId": 2539
      }
    },
    {
      "type": "Feature",
      "geometry": {
        "type": "Point",
        "coordinates": [
          2.61342234672,
          48.41046134184
        ]
      },
      "properties": {
        "name": "Mélancolique",
        "problemId": 2858
      }
    },
    {
      "type": "Feature",
      "geometry": {
        "type": "Point",
        "coordinates": [
          2.61159821447,
          48.41029628782
        ]
      },
      "properties": {
        "name": "Agliato",
        "problemId": 2596
      }
    },
    {
      "type": "Feature",
      "geometry": {
        "type": "Point",
        "coordinates": [
          2.61269587009,
          48.41032029964
        ]
      },
      "properties": {
        "name": "Orange 37 La Dalle à Grattons",
        "problemId": 2733
      }
    },
    {
      "type": "Feature",
      "geometry": {
        "type": "Point",
        "coordinates": [
          2.61366388711,
          48.41035438492
        ]
      },
      "properties": {
        "name": "White 32 Basse Pression",
        "problemId": 2830
      }
    },
    {
      "type": "Feature",
      "geometry": {
        "type": "Point",
        "coordinates": [
          2.61138916902,
          48.41000701313
        ]
      },
      "properties": {
        "name": "Yellow 5 Danse à Gogo",
        "problemId": 2476
      }
    },
    {
      "type": "Feature",
      "geometry": {
        "type": "Point",
        "coordinates": [
          2.61158074509,
          48.41007501497
        ]
      },
      "properties": {
        "name": "Orange 14 La Redoutable",
        "problemId": 2504
      }
    },
    {
      "type": "Feature",
      "geometry": {
        "type": "Point",
        "coordinates": [
          2.6120781675,
          48.41027102737
        ]
      },
      "properties": {
        "name": "Cavité",
        "problemId": 2632
      }
    },
    {
      "type": "Feature",
      "geometry": {
        "type": "Point",
        "coordinates": [
          2.6140355635,
          48.41062186453
        ]
      },
      "properties": {
        "name": "Footrix / Valses de Vienne",
        "problemId": 2839
      }
    },
    {
      "type": "Feature",
      "geometry": {
        "type": "Point",
        "coordinates": [
          2.61138902433,
          48.41003880496
        ]
      },
      "properties": {
        "name": "Un Monde de Fous",
        "problemId": 2469
      }
    },
    {
      "type": "Feature",
      "geometry": {
        "type": "Point",
        "coordinates": [
          2.61098196939,
          48.41001890438
        ]
      },
      "properties": {
        "name": "Crack Parano (assis)",
        "problemId": 2460
      }
    },
    {
      "type": "Feature",
      "geometry": {
        "type": "Point",
        "coordinates": [
          2.61173176132,
          48.40964769504
        ]
      },
      "properties": {
        "name": "The Wall (assis)",
        "problemId": 2549
      }
    },
    {
      "type": "Feature",
      "geometry": {
        "type": "Point",
        "coordinates": [
          2.61155108263,
          48.41014974003
        ]
      },
      "properties": {
        "name": "La Divine (assis)",
        "problemId": 2490
      }
    },
    {
      "type": "Feature",
      "geometry": {
        "type": "Point",
        "coordinates": [
          2.61175886467,
          48.40996119819
        ]
      },
      "properties": {
        "name": "Blocage Mental (assis)",
        "problemId": 2582
      }
    },
    {
      "type": "Feature",
      "geometry": {
        "type": "Point",
        "coordinates": [
          2.61203446981,
          48.4100454083
        ]
      },
      "properties": {
        "name": "Chair de Poule",
        "problemId": 2567
      }
    },
    {
      "type": "Feature",
      "geometry": {
        "type": "Point",
        "coordinates": [
          2.61111100545,
          48.4098920756
        ]
      },
      "properties": {
        "name": "Pas Glop!",
        "problemId": 2518
      }
    },
    {
      "type": "Feature",
      "geometry": {
        "type": "Point",
        "coordinates": [
          2.6124765126,
          48.41044823442
        ]
      },
      "properties": {
        "name": "L'Orfèvre",
        "problemId": 2648
      }
    },
    {
      "type": "Feature",
      "geometry": {
        "type": "Point",
        "coordinates": [
          2.61168781954,
          48.41005393234
        ]
      },
      "properties": {
        "name": "Les Feux de la Rampe",
        "problemId": 2716
      }
    },
    {
      "type": "Feature",
      "geometry": {
        "type": "Point",
        "coordinates": [
          2.61144588943,
          48.41006694696
        ]
      },
      "properties": {
        "name": "Orange 9 La Deuxième Voie",
        "problemId": 2483
      }
    },
    {
      "type": "Feature",
      "geometry": {
        "type": "Point",
        "coordinates": [
          2.61197355293,
          48.41031348038
        ]
      },
      "properties": {
        "name": "Orange 46 Le Terrier",
        "problemId": 2622
      }
    },
    {
      "type": "Feature",
      "geometry": {
        "type": "Point",
        "coordinates": [
          2.61360492368,
          48.41021922114
        ]
      },
      "properties": {
        "name": "Red 32 Chat Cath Blues",
        "problemId": 2816
      }
    },
    {
      "type": "Feature",
      "geometry": {
        "type": "Point",
        "coordinates": [
          2.61127414454,
          48.40983893379
        ]
      },
      "properties": {
        "name": "Orange 7 L'Amuse-Gueule",
        "problemId": 2526
      }
    },
    {
      "type": "Feature",
      "geometry": {
        "type": "Point",
        "coordinates": [
          2.61190294181,
          48.41027832706
        ]
      },
      "properties": {
        "name": "Big Peine",
        "problemId": 2616
      }
    },
    {
      "type": "Feature",
      "geometry": {
        "type": "Point",
        "coordinates": [
          2.61096321963,
          48.4102836444
        ]
      },
      "properties": {
        "name": "White 2 La Cuvette",
        "problemId": 2452
      }
    },
    {
      "type": "Feature",
      "geometry": {
        "type": "Point",
        "coordinates": [
          2.61272234926,
          48.41031348028
        ]
      },
      "properties": {
        "name": "White 41 La Narine",
        "problemId": 2730
      }
    },
    {
      "type": "Feature",
      "geometry": {
        "type": "Point",
        "coordinates": [
          2.61174685485,
          48.40997185961
        ]
      },
      "properties": {
        "name": "",
        "problemId": 2580
      }
    },
    {
      "type": "Feature",
      "geometry": {
        "type": "Point",
        "coordinates": [
          2.61199838173,
          48.40976910023
        ]
      },
      "properties": {
        "name": "Yellow 18 La Raie des Fesses",
        "problemId": 2554
      }
    },
    {
      "type": "Feature",
      "geometry": {
        "type": "Point",
        "coordinates": [
          2.61317777669,
          48.41000717346
        ]
      },
      "properties": {
        "name": "White 17 L'Hypoténuse",
        "problemId": 2772
      }
    },
    {
      "type": "Feature",
      "geometry": {
        "type": "Point",
        "coordinates": [
          2.6107734001,
          48.4102758806
        ]
      },
      "properties": {
        "name": "La Savonnette",
        "problemId": 2440
      }
    },
    {
      "type": "Feature",
      "geometry": {
        "type": "Point",
        "coordinates": [
          2.61097334828,
          48.41025771161
        ]
      },
      "properties": {
        "name": "La Valse",
        "problemId": 2453
      }
    },
    {
      "type": "Feature",
      "geometry": {
        "type": "Point",
        "coordinates": [
          2.61221201015,
          48.41038013714
        ]
      },
      "properties": {
        "name": "Orange 43 Prises Magiques",
        "problemId": 2655
      }
    },
    {
      "type": "Feature",
      "geometry": {
        "type": "Point",
        "coordinates": [
          2.61343546359,
          48.41044467446
        ]
      },
      "properties": {
        "name": "Le Plaisir des Doigts",
        "problemId": 2856
      }
    },
    {
      "type": "Feature",
      "geometry": {
        "type": "Point",
        "coordinates": [
          2.6120768651,
          48.41044929103
        ]
      },
      "properties": {
        "name": "Orange 44 Le Triangle",
        "problemId": 2626
      }
    },
    {
      "type": "Feature",
      "geometry": {
        "type": "Point",
        "coordinates": [
          2.61314567147,
          48.41011712936
        ]
      },
      "properties": {
        "name": "Yellow 31 Dernière Œuvre",
        "problemId": 2766
      }
    },
    {
      "type": "Feature",
      "geometry": {
        "type": "Point",
        "coordinates": [
          2.611588848,
          48.40998280907
        ]
      },
      "properties": {
        "name": "Yellow 9 Coup de Rein",
        "problemId": 2508
      }
    },
    {
      "type": "Feature",
      "geometry": {
        "type": "Point",
        "coordinates": [
          2.61373471831,
          48.41030844578
        ]
      },
      "properties": {
        "name": "La Malicieuse",
        "problemId": 2828
      }
    },
    {
      "type": "Feature",
      "geometry": {
        "type": "Point",
        "coordinates": [
          2.61224847327,
          48.41037283756
        ]
      },
      "properties": {
        "name": "L'Atome",
        "problemId": 2657
      }
    },
    {
      "type": "Feature",
      "geometry": {
        "type": "Point",
        "coordinates": [
          2.61305414035,
          48.41031433328
        ]
      },
      "properties": {
        "name": "Yellow 32 La Patte de l'Ours",
        "problemId": 2759
      }
    },
    {
      "type": "Feature",
      "geometry": {
        "type": "Point",
        "coordinates": [
          2.61203432479,
          48.41029561559
        ]
      },
      "properties": {
        "name": "Orange 47 Le Tire-Poignets",
        "problemId": 2625
      }
    },
    {
      "type": "Feature",
      "geometry": {
        "type": "Point",
        "coordinates": [
          2.61304773234,
          48.40994448361
        ]
      },
      "properties": {
        "name": "Yellow 27 La Grande Arête",
        "problemId": 2781
      }
    },
    {
      "type": "Feature",
      "geometry": {
        "type": "Point",
        "coordinates": [
          2.61247369504,
          48.4097960969
        ]
      },
      "properties": {
        "name": "Red 19 Le Pilier",
        "problemId": 2705
      }
    },
    {
      "type": "Feature",
      "geometry": {
        "type": "Point",
        "coordinates": [
          2.61175969385,
          48.41038647625
        ]
      },
      "properties": {
        "name": "Karma",
        "problemId": 2609
      }
    },
    {
      "type": "Feature",
      "geometry": {
        "type": "Point",
        "coordinates": [
          2.61088009378,
          48.41043047922
        ]
      },
      "properties": {
        "name": "Nouvelle Série",
        "problemId": 2451
      }
    },
    {
      "type": "Feature",
      "geometry": {
        "type": "Point",
        "coordinates": [
          2.61156540743,
          48.4100859644
        ]
      },
      "properties": {
        "name": "La Sans-Souci",
        "problemId": 2506
      }
    },
    {
      "type": "Feature",
      "geometry": {
        "type": "Point",
        "coordinates": [
          2.61254993304,
          48.41017365932
        ]
      },
      "properties": {
        "name": "On The Rocks",
        "problemId": 2673
      }
    },
    {
      "type": "Feature",
      "geometry": {
        "type": "Point",
        "coordinates": [
          2.61258930642,
          48.40972915113
        ]
      },
      "properties": {
        "name": "Pause Café (droite-gauche)",
        "problemId": 2751
      }
    },
    {
      "type": "Feature",
      "geometry": {
        "type": "Point",
        "coordinates": [
          2.61158490239,
          48.41020533104
        ]
      },
      "properties": {
        "name": "Miséricorde",
        "problemId": 2591
      }
    },
    {
      "type": "Feature",
      "geometry": {
        "type": "Point",
        "coordinates": [
          2.61151896878,
          48.40983739673
        ]
      },
      "properties": {
        "name": "Sanguine",
        "problemId": 2570
      }
    },
    {
      "type": "Feature",
      "geometry": {
        "type": "Point",
        "coordinates": [
          2.6131927674,
          48.40997176532
        ]
      },
      "properties": {
        "name": "Bonzo",
        "problemId": 2787
      }
    },
    {
      "type": "Feature",
      "geometry": {
        "type": "Point",
        "coordinates": [
          2.61161894454,
          48.41003659586
        ]
      },
      "properties": {
        "name": "Yellow 11 La Redemande",
        "problemId": 2502
      }
    },
    {
      "type": "Feature",
      "geometry": {
        "type": "Point",
        "coordinates": [
          2.61160071298,
          48.41005580542
        ]
      },
      "properties": {
        "name": "Yellow 10 L'Offre",
        "problemId": 2503
      }
    },
    {
      "type": "Feature",
      "geometry": {
        "type": "Point",
        "coordinates": [
          2.61142563214,
          48.41001392857
        ]
      },
      "properties": {
        "name": "Le Mythe de Sisyphe",
        "problemId": 2482
      }
    },
    {
      "type": "Feature",
      "geometry": {
        "type": "Point",
        "coordinates": [
          2.6130000489,
          48.41022369887
        ]
      },
      "properties": {
        "name": "Red 39 La Déconfiture",
        "problemId": 2756
      }
    },
    {
      "type": "Feature",
      "geometry": {
        "type": "Point",
        "coordinates": [
          2.61254365061,
          48.41027640631
        ]
      },
      "properties": {
        "name": "Undertow",
        "problemId": 2671
      }
    },
    {
      "type": "Feature",
      "geometry": {
        "type": "Point",
        "coordinates": [
          2.61340429822,
          48.41031060176
        ]
      },
      "properties": {
        "name": "Remise d'Échecs",
        "problemId": 2815
      }
    },
    {
      "type": "Feature",
      "geometry": {
        "type": "Point",
        "coordinates": [
          2.61193506408,
          48.4102771745
        ]
      },
      "properties": {
        "name": "Chloe",
        "problemId": 2617
      }
    },
    {
      "type": "Feature",
      "geometry": {
        "type": "Point",
        "coordinates": [
          2.61305984982,
          48.41011016375
        ]
      },
      "properties": {
        "name": "Red 27 Pain Chaud",
        "problemId": 2764
      }
    },
    {
      "type": "Feature",
      "geometry": {
        "type": "Point",
        "coordinates": [
          2.61165511828,
          48.40993151947
        ]
      },
      "properties": {
        "name": "La Fissure",
        "problemId": 2512
      }
    },
    {
      "type": "Feature",
      "geometry": {
        "type": "Point",
        "coordinates": [
          2.61323488543,
          48.40969355233
        ]
      },
      "properties": {
        "name": "White 23 Le Sourire",
        "problemId": 2800
      }
    },
    {
      "type": "Feature",
      "geometry": {
        "type": "Point",
        "coordinates": [
          2.61405142866,
          48.41060221201
        ]
      },
      "properties": {
        "name": "Hard Rock (assis)",
        "problemId": 2843
      }
    },
    {
      "type": "Feature",
      "geometry": {
        "type": "Point",
        "coordinates": [
          2.61138627526,
          48.410035059
        ]
      },
      "properties": {
        "name": "Un Monde de Fous (aller-retour)",
        "problemId": 2470
      }
    },
    {
      "type": "Feature",
      "geometry": {
        "type": "Point",
        "coordinates": [
          2.61070249959,
          48.41027856992
        ]
      },
      "properties": {
        "name": "White 1 L'Oblique",
        "problemId": 2445
      }
    },
    {
      "type": "Feature",
      "geometry": {
        "type": "Point",
        "coordinates": [
          2.61230613832,
          48.40979225497
        ]
      },
      "properties": {
        "name": "Orange 19 La Sableuse",
        "problemId": 2694
      }
    },
    {
      "type": "Feature",
      "geometry": {
        "type": "Point",
        "coordinates": [
          2.61245691043,
          48.40990232615
        ]
      },
      "properties": {
        "name": "Keep in Touch",
        "problemId": 2689
      }
    },
    {
      "type": "Feature",
      "geometry": {
        "type": "Point",
        "coordinates": [
          2.61313655226,
          48.40999946162
        ]
      },
      "properties": {
        "name": "Teflon",
        "problemId": 2780
      }
    },
    {
      "type": "Feature",
      "geometry": {
        "type": "Point",
        "coordinates": [
          2.6110840922,
          48.40989169141
        ]
      },
      "properties": {
        "name": "La Pierre Ponze",
        "problemId": 2519
      }
    },
    {
      "type": "Feature",
      "geometry": {
        "type": "Point",
        "coordinates": [
          2.61172742047,
          48.40964250842
        ]
      },
      "properties": {
        "name": "The Wall",
        "problemId": 2548
      }
    },
    {
      "type": "Feature",
      "geometry": {
        "type": "Point",
        "coordinates": [
          2.61255414542,
          48.40974903324
        ]
      },
      "properties": {
        "name": "Passage au Vert",
        "problemId": 2749
      }
    },
    {
      "type": "Feature",
      "geometry": {
        "type": "Point",
        "coordinates": [
          2.61071812664,
          48.410301045
        ]
      },
      "properties": {
        "name": "Technopocket",
        "problemId": 2443
      }
    },
    {
      "type": "Feature",
      "geometry": {
        "type": "Point",
        "coordinates": [
          2.6130382381,
          48.41016406367
        ]
      },
      "properties": {
        "name": "Orange 34 Bienvenue aux Vacances",
        "problemId": 2763
      }
    },
    {
      "type": "Feature",
      "geometry": {
        "type": "Point",
        "coordinates": [
          2.61152807614,
          48.41002468593
        ]
      },
      "properties": {
        "name": "Bouge de Là",
        "problemId": 2495
      }
    },
    {
      "type": "Feature",
      "geometry": {
        "type": "Point",
        "coordinates": [
          2.6126156409,
          48.40978918133
        ]
      },
      "properties": {
        "name": "Red 21 Le Kick",
        "problemId": 2747
      }
    },
    {
      "type": "Feature",
      "geometry": {
        "type": "Point",
        "coordinates": [
          2.61199844045,
          48.4102625753
        ]
      },
      "properties": {
        "name": "Melun",
        "problemId": 2620
      }
    },
    {
      "type": "Feature",
      "geometry": {
        "type": "Point",
        "coordinates": [
          2.61404143473,
          48.41053504519
        ]
      },
      "properties": {
        "name": "Voluptueuse Fantaisie",
        "problemId": 2838
      }
    },
    {
      "type": "Feature",
      "geometry": {
        "type": "Point",
        "coordinates": [
          2.61146267418,
          48.41012111775
        ]
      },
      "properties": {
        "name": "Orange 10 Le Répit",
        "problemId": 2576
      }
    },
    {
      "type": "Feature",
      "geometry": {
        "type": "Point",
        "coordinates": [
          2.61158475129,
          48.40969168524
        ]
      },
      "properties": {
        "name": "Red 14 La Voie Lactée",
        "problemId": 2536
      }
    },
    {
      "type": "Feature",
      "geometry": {
        "type": "Point",
        "coordinates": [
          2.61201493567,
          48.41026526462
        ]
      },
      "properties": {
        "name": "Brie",
        "problemId": 2619
      }
    },
    {
      "type": "Feature",
      "geometry": {
        "type": "Point",
        "coordinates": [
          2.61224731571,
          48.41057223106
        ]
      },
      "properties": {
        "name": "Red 51 Le Coup d'Œil",
        "problemId": 2637
      }
    },
    {
      "type": "Feature",
      "geometry": {
        "type": "Point",
        "coordinates": [
          2.61196539129,
          48.40978677311
        ]
      },
      "properties": {
        "name": "Le Mouton à 6 Pattes",
        "problemId": 2556
      }
    },
    {
      "type": "Feature",
      "geometry": {
        "type": "Point",
        "coordinates": [
          2.61312318542,
          48.40996438524
        ]
      },
      "properties": {
        "name": "White 16 Carton Blanc",
        "problemId": 2784
      }
    },
    {
      "type": "Feature",
      "geometry": {
        "type": "Point",
        "coordinates": [
          2.61216020937,
          48.41051191365
        ]
      },
      "properties": {
        "name": "S'il Vous Plaît",
        "problemId": 2633
      }
    },
    {
      "type": "Feature",
      "geometry": {
        "type": "Point",
        "coordinates": [
          2.61195034273,
          48.40976391381
        ]
      },
      "properties": {
        "name": "Yellow 17 Les Poignées de Valise",
        "problemId": 2553
      }
    },
    {
      "type": "Feature",
      "geometry": {
        "type": "Point",
        "coordinates": [
          2.61337552868,
          48.40999374018
        ]
      },
      "properties": {
        "name": "Yellow 30 Promenade Faîtière",
        "problemId": 2805
      }
    },
    {
      "type": "Feature",
      "geometry": {
        "type": "Point",
        "coordinates": [
          2.6110667606,
          48.40997453027
        ]
      },
      "properties": {
        "name": "Yellow 3 Illusions Perdues",
        "problemId": 2466
      }
    },
    {
      "type": "Feature",
      "geometry": {
        "type": "Point",
        "coordinates": [
          2.61381057789,
          48.41064649246
        ]
      },
      "properties": {
        "name": "Champ de Bosses",
        "problemId": 2847
      }
    },
    {
      "type": "Feature",
      "geometry": {
        "type": "Point",
        "coordinates": [
          2.61159372237,
          48.40971358428
        ]
      },
      "properties": {
        "name": "Filigrane",
        "problemId": 2534
      }
    },
    {
      "type": "Feature",
      "geometry": {
        "type": "Point",
        "coordinates": [
          2.61379330686,
          48.41027328669
        ]
      },
      "properties": {
        "name": "Red 36 Fil à Plomb",
        "problemId": 2822
      }
    },
    {
      "type": "Feature",
      "geometry": {
        "type": "Point",
        "coordinates": [
          2.61154728171,
          48.41022242749
        ]
      },
      "properties": {
        "name": "White 7 La Rafale",
        "problemId": 2589
      }
    },
    {
      "type": "Feature",
      "geometry": {
        "type": "Point",
        "coordinates": [
          2.61154254563,
          48.41009460869
        ]
      },
      "properties": {
        "name": "Erreur Fatale",
        "problemId": 2500
      }
    },
    {
      "type": "Feature",
      "geometry": {
        "type": "Point",
        "coordinates": [
          2.61143199871,
          48.41005061884
        ]
      },
      "properties": {
        "name": "Red 5 Traversée Croisée",
        "problemId": 2481
      }
    },
    {
      "type": "Feature",
      "geometry": {
        "type": "Point",
        "coordinates": [
          2.61224789449,
          48.41053458071
        ]
      },
      "properties": {
        "name": "Merci les Gags",
        "problemId": 2634
      }
    },
    {
      "type": "Feature",
      "geometry": {
        "type": "Point",
        "coordinates": [
          2.61159416301,
          48.41029580758
        ]
      },
      "properties": {
        "name": "Les Chiens de Paille",
        "problemId": 2601
      }
    },
    {
      "type": "Feature",
      "geometry": {
        "type": "Point",
        "coordinates": [
          2.6130682195,
          48.40995791724
        ]
      },
      "properties": {
        "name": "Orange 26 La Dalle de la Grande Arête",
        "problemId": 2782
      }
    },
    {
      "type": "Feature",
      "geometry": {
        "type": "Point",
        "coordinates": [
          2.61274694739,
          48.41034680867
        ]
      },
      "properties": {
        "name": "White 40 La Molière",
        "problemId": 2736
      }
    },
    {
      "type": "Feature",
      "geometry": {
        "type": "Point",
        "coordinates": [
          2.61141218379,
          48.40989099167
        ]
      },
      "properties": {
        "name": "Orange 12 L'Angle à Cath",
        "problemId": 2530
      }
    },
    {
      "type": "Feature",
      "geometry": {
        "type": "Point",
        "coordinates": [
          2.61374983381,
          48.41028191064
        ]
      },